{
  "countries": [
    {
      "code": "AD",
      "latitude": 42.546245,
      "longitude": 1.601554,
      "name": "Andorra"
    },
    {
      "code": "AE",
      "latitude": 23.424076,
      "longitude": 53.847818,
      "name": "United Arab Emirates"
    },
    {
      "code": "AF",
      "latitude": 33.93911,
      "longitude": 67.709953,
      "name": "Afghanistan"
    },{
      "code": "AG",
      "latitude": 17.060816,
      "longitude": -61.796428,
      "name": "Antigua and Barbuda"
    },{
      "code": "AI",
      "latitude": 18.220554,
      "longitude": -63.068615,
      "name": "Anguilla"
    },
    {
      "code": "AL",
      "latitude": 41.153332,
      "longitude": 20.168331,
      "name": "Albania"
    }
  ],
  "lines": [
    {
      "latitude_1": 42.546245,
      "longitude_1": 1.601554,
      "latitude_2": 23.424076,
      "longitude_2": 53.847818
    },
    {
      "latitude_1": 42.546245,
      "longitude_1": 1.601554,
      "latitude_2": 33.93911,
      "longitude_2": 67.709953
    },
    {
      "latitude_1": 42.546245,
      "longitude_1": 1.601554,
      "latitude_2": 17.060816,
      "longitude_2": -61.796428
    },{
      "latitude_1": 42.546245,
      "longitude_1": 1.601554,
      "latitude_2": 18.220554,
      "longitude_2": -63.068615
    },{
      "latitude_1": 42.546245,
      "longitude_1": 1.601554,
      "latitude_2": 41.153332,
      "longitude_2": 20.168331
    }

  ]
}